[
  {
    "fsa_id": 240693,
    "name": "Anglesey Arms",
    "address": "Halnaker, Boxgrove, West Sussex",
    "postcode": "PO18 0NQ",
    "easting": 490846,
    "northing": 108134,
    "latitude": 50.865585,
    "longitude": -0.710445,
    "local_authority": "Chichester"
  },
  {
    "fsa_id": 240709,
    "name": "Badgers Tavern",
    "address": "Station Road, Petworth, West Sussex",
    "postcode": "GU28 0JF",
    "easting": 497048,
    "northing": 119162,
    "latitude": 50.963717,
    "longitude": -0.619411,
    "local_authority": "Chichester"
  },
  {
    "fsa_id": 240719,
    "name": "Barley Mow",
    "address": "Breakneck Lane, Walderton, Chichester, West Sussex",
    "postcode": "PO18 9ED",
    "easting": 479004,
    "northing": 110627,
    "latitude": 50.889736,
    "longitude": -0.878145,
    "local_authority": "Chichester"
  },
  {
    "fsa_id": 240723,
    "name": "Basmati Restaurant",
    "address": "Swan House, Market Square, Petworth, West Sussex",
    "postcode": "GU28 0AH",
    "easting": 497651,
    "northing": 121679,
    "latitude": 50.986243,
    "longitude": -0.610152,
    "local_authority": "Chichester"
  },
  {
    "fsa_id": 240737,
    "name": "Bell Inn",
    "address": "3 Broyle Road, Chichester, West Sussex",
    "postcode": "PO19 6AT",
    "easting": 486060,
    "northing": 105439,
    "latitude": 50.842087,
    "longitude": -0.77907,
    "local_authority": "Chichester"
  },
  {
    "fsa_id": 240750,
    "name": "Black Horse Inn",
    "address": "Byworth, Petworth, West Sussex",
    "postcode": "GU28 0HL",
    "easting": 498744,
    "northing": 121011,
    "latitude": 50.980051,
    "longitude": -0.594766,
    "local_authority": "Chichester"
  },
  {
    "fsa_id": 240763,
    "name": "Bosham Football Club",
    "address": "Pavilion, Bosham Recreation Ground, Walton Lane, Bosham",
    "postcode": "PO18 8QF",
    "easting": 481146,
    "northing": 104399,
    "latitude": 50.833446,
    "longitude": -0.849077,
    "local_authority": "Chichester"
  },
  {
    "fsa_id": 240764,
    "name": "Bosham Inn",
    "address": "Main Road, Bosham, Chichester, West Sussex",
    "postcode": "PO18 8PW",
    "easting": 479362,
    "northing": 105357,
    "latitude": 50.842306,
    "longitude": -0.874197,
    "local_authority": "Chichester"
  },
  {
    "fsa_id": 240766,
    "name": "Bosham Sailing Club",
    "address": "The Quay, Quay Meadow, Bosham, Chichester",
    "postcode": "PO18 8LU",
    "easting": 480388,
    "northing": 103808,
    "latitude": 50.828239,
    "longitude": -0.859968,
    "local_authority": "Chichester"
  },
  {
    "fsa_id": 240776,
    "name": "Bracklesham Social Club",
    "address": "Bracklesham Caravan And Boat Club, East Bracklesham Drive, Bracklesham, Chichester",
    "postcode": "PO20 8JP",
    "easting": 481441,
    "northing": 95830,
    "latitude": 50.756372,
    "longitude": -0.8468,
    "local_authority": "Chichester"
  },
  {
    "fsa_id": 240800,
    "name": "Cabana Club",
    "address": "Selsey Country Club, Golf Links Lane, Selsey, Chichester",
    "postcode": "PO20 9DR",
    "easting": 485027,
    "northing": 94694,
    "latitude": 50.745636,
    "longitude": -0.796221,
    "local_authority": "Chichester"
  },
  {
    "fsa_id": 240895,
    "name": "Chichester Baptist Church",
    "address": "124 Sherborne Road, Chichester, West Sussex",
    "postcode": "PO19 3AW",
    "easting": 485445,
    "northing": 105678,
    "latitude": 50.844327,
    "longitude": -0.787761,
    "local_authority": "Chichester"
  },
  {
    "fsa_id": 240896,
    "name": "Chichester Boys Club",
    "address": "34A Little London, Chichester, West Sussex",
    "postcode": "PO19 1PL",
    "easting": 486302,
    "northing": 104861,
    "latitude": 50.836864,
    "longitude": -0.775783,
    "local_authority": "Chichester"
  },
  {
    "fsa_id": 240899,
    "name": "Chichester City Club",
    "address": "13 North Pallant, Chichester, West Sussex",
    "postcode": "PO19 1TQ",
    "easting": 486148,
    "northing": 104725,
    "latitude": 50.835655,
    "longitude": -0.778002,
    "local_authority": "Chichester"
  },
  {
    "fsa_id": 240901,
    "name": "Chichester Club Kitchen",
    "address": "Chichester City Club, 13 North Pallant, Chichester, West Sussex",
    "postcode": "PO19 1TQ",
    "easting": 486148,
    "northing": 104725,
    "latitude": 50.835655,
    "longitude": -0.778002,
    "local_authority": "Chichester"
  },
  {
    "fsa_id": 240919,
    "name": "Chichester Snooker Club",
    "address": "Terminus Road, Chichester, West Sussex",
    "postcode": "PO19 8TL",
    "easting": 485663,
    "northing": 104242,
    "latitude": 50.831393,
    "longitude": -0.784986,
    "local_authority": "Chichester"
  },
  {
    "fsa_id": 240921,
    "name": "Chichester Watersports Centre",
    "address": "Westhampnett Lake, Coach Road(north), Westhampnett, Chichester",
    "postcode": "PO18 0NX",
    "easting": 488339,
    "northing": 106140,
    "latitude": 50.848046,
    "longitude": -0.746541,
    "local_authority": "Chichester"
  },
  {
    "fsa_id": 240922,
    "name": "Chichester Yacht Club",
    "address": "Premier Marinas, Chichester Marina, Birdham, Chichester",
    "postcode": "PO20 7EJ",
    "easting": 483003,
    "northing": 101013,
    "latitude": 50.802741,
    "longitude": -0.823478,
    "local_authority": "Chichester"
  },
  {
    "fsa_id": 240938,
    "name": "Club House",
    "address": "Cowdray Park Golf Club, Easebourne, West Sussex",
    "postcode": "GU29 0BB",
    "easting": 489781,
    "northing": 122403,
    "latitude": 50.994031,
    "longitude": -0.722065,
    "local_authority": "Chichester"
  },
  {
    "fsa_id": 240939,
    "name": "Coach And Horses",
    "address": "The Square, Compton, Chichester, West Sussex",
    "postcode": "PO18 9HA",
    "easting": 477634,
    "northing": 114821,
    "latitude": 50.927628,
    "longitude": -0.896728,
    "local_authority": "Chichester"
  },
  {
    "fsa_id": 240988,
    "name": "Country Inn",
    "address": "Severals Road, Bepton, Midhurst, West Sussex",
    "postcode": "GU29 0LR",
    "easting": 486973,
    "northing": 120623,
    "latitude": 50.978459,
    "longitude": -0.762492,
    "local_authority": "Chichester"
  },
  {
    "fsa_id": 240997,
    "name": "Cricketers Arms",
    "address": "Durbans Road, Wisborough Green, Billingshurst, West Sussex",
    "postcode": "RH14 0DG",
    "easting": 504995,
    "northing": 126214,
    "latitude": 51.025717,
    "longitude": -0.504249,
    "local_authority": "Chichester"
  },
  {
    "fsa_id": 241002,
    "name": "Crown And Anchor",
    "address": "Dell Quay Road, Dell Quay, Appledram, Chichester",
    "postcode": "PO20 7EE",
    "easting": 483582,
    "northing": 102870,
    "latitude": 50.819353,
    "longitude": -0.814841,
    "local_authority": "Chichester"
  },
  {
    "fsa_id": 241008,
    "name": "CYE Sailing Centre",
    "address": "Jubilee Building, Chidham Lane, Chidham, Chichester",
    "postcode": "PO18 8TE",
    "easting": 479113,
    "northing": 102848,
    "latitude": 50.819782,
    "longitude": -0.878274,
    "local_authority": "Chichester"
  },
  {
    "fsa_id": 241028,
    "name": "DQSC Dellquay SC",
    "address": "Dell Quay Sailing Club, Dell Quay Road, Dell Quay, Appledram",
    "postcode": "PO20 7EE",
    "easting": 483582,
    "northing": 102870,
    "latitude": 50.819353,
    "longitude": -0.814841,
    "local_authority": "Chichester"
  },
  {
    "fsa_id": 241033,
    "name": "Duke And Rye",
    "address": "St Peters Market, West Street, Chichester, West Sussex",
    "postcode": "PO19 1QU",
    "easting": 485890,
    "northing": 104865,
    "latitude": 50.836952,
    "longitude": -0.781618,
    "local_authority": "Chichester"
  },
  {
    "fsa_id": 241053,
    "name": "Embassy Club Bar",
    "address": "The Waterfront Complex, West Sands Caravan Park, Mill Lane, Selsey",
    "postcode": "PO20 9BH",
    "easting": 484339,
    "northing": 93462,
    "latitude": 50.73466,
    "longitude": -0.806252,
    "local_authority": "Chichester"
  },
  {
    "fsa_id": 241067,
    "name": "Faustinos Wine Bar",
    "address": "2A North Street, Midhurst, West Sussex",
    "postcode": "GU29 9DJ",
    "easting": 488659,
    "northing": 121697,
    "latitude": 50.987858,
    "longitude": -0.738234,
    "local_authority": "Chichester"
  },
  {
    "fsa_id": 241075,
    "name": "Fernhurst Club",
    "address": "8 Midhurst Road, Fernhurst, Haslemere, West Sussex",
    "postcode": "GU27 3EE",
    "easting": 489592,
    "northing": 128422,
    "latitude": 51.048175,
    "longitude": -0.723283,
    "local_authority": "Chichester"
  },
  {
    "fsa_id": 241079,
    "name": "Fernhurst Recreation Ground",
    "address": "The Pavillion, Recreation Ground, The Green, Fernhurst",
    "postcode": "GU27 3HY",
    "easting": 490014,
    "northing": 128553,
    "latitude": 51.049282,
    "longitude": -0.717221,
    "local_authority": "Chichester"
  },
  {
    "fsa_id": 241080,
    "name": "Fernhurst Youth Club",
    "address": "Haslemere Road, Fernhurst, Haslemere, West Sussex",
    "postcode": "GU27 3EA",
    "easting": 489695,
    "northing": 128674,
    "latitude": 51.05042,
    "longitude": -0.721741,
    "local_authority": "Chichester"
  },
  {
    "fsa_id": 241087,
    "name": "Fishbourne Centre",
    "address": "Blackboy Lane, Fishbourne, Chichester, West Sussex",
    "postcode": "PO18 8BE",
    "easting": 483260,
    "northing": 105020,
    "latitude": 50.838729,
    "longitude": -0.818923,
    "local_authority": "Chichester"
  },
  {
    "fsa_id": 241104,
    "name": "Foresters Arms",
    "address": "The Street, Graffham, Petworth, West Sussex",
    "postcode": "GU28 0QA",
    "easting": 492955,
    "northing": 117626,
    "latitude": 50.950592,
    "longitude": -0.67807,
    "local_authority": "Chichester"
  },
  {
    "fsa_id": 241105,
    "name": "Foresters Arms",
    "address": "Village Road, Kirdford, Billingshurst, West Sussex",
    "postcode": "RH14 0ND",
    "easting": 501705,
    "northing": 126870,
    "latitude": 51.032205,
    "longitude": -0.550961,
    "local_authority": "Chichester"
  },
  {
    "fsa_id": 241107,
    "name": "Fox and Hounds",
    "address": "Common Road, Funtington, Chichester, West Sussex",
    "postcode": "PO18 9LL",
    "easting": 480014,
    "northing": 108344,
    "latitude": 50.869071,
    "longitude": -0.864287,
    "local_authority": "Chichester"
  },
  {
    "fsa_id": 241108,
    "name": "Foxbridge Golf Club",
    "address": "Foxbridge Lane, Kirdford, Billingshurst, West Sussex",
    "postcode": "RH14 0LB",
    "easting": 502096,
    "northing": 130145,
    "latitude": 51.061576,
    "longitude": -0.544465,
    "local_authority": "Chichester"
  },
  {
    "fsa_id": 241141,
    "name": "Half Moon",
    "address": "Petersfield Road, Midhurst, West Sussex",
    "postcode": "GU29 9LL",
    "easting": 487769,
    "northing": 121818,
    "latitude": 50.989082,
    "longitude": -0.750882,
    "local_authority": "Chichester"
  },
  {
    "fsa_id": 241142,
    "name": "Half Moon Inn",
    "address": "Valentines Hill, Northchapel, Petworth, West Sussex",
    "postcode": "GU28 9HP",
    "easting": 495175,
    "northing": 129420,
    "latitude": 51.056237,
    "longitude": -0.643387,
    "local_authority": "Chichester"
  },
  {
    "fsa_id": 241143,
    "name": "Halfway Bridge Inn",
    "address": "Halfway Bridge, Lodsworth, Petworth, West Sussex",
    "postcode": "GU28 9BP",
    "easting": 493066,
    "northing": 121972,
    "latitude": 50.989626,
    "longitude": -0.67538,
    "local_authority": "Chichester"
  },
  {
    "fsa_id": 241151,
    "name": "Harbour Way Country Club",
    "address": "Chichester Road, West Wittering, Chichester, West Sussex",
    "postcode": "PO20 8QA",
    "easting": 480576,
    "northing": 99166,
    "latitude": 50.786468,
    "longitude": -0.858331,
    "local_authority": "Chichester"
  },
  {
    "fsa_id": 241153,
    "name": "Hare And Hounds",
    "address": "Stoughton, Chichester, West Sussex",
    "postcode": "PO18 9JQ",
    "easting": 480319,
    "northing": 111517,
    "latitude": 50.897556,
    "longitude": -0.859257,
    "local_authority": "Chichester"
  },
  {
    "fsa_id": 241160,
    "name": "Harting Mens Club",
    "address": "Church Lane, South Harting, Petersfield, West Sussex",
    "postcode": "GU31 5QF",
    "easting": 478390,
    "northing": 119465,
    "latitude": 50.969279,
    "longitude": -0.884975,
    "local_authority": "Chichester"
  },
  {
    "fsa_id": 241185,
    "name": "Horse and Groom",
    "address": "East Ashling, Chichester, West Sussex",
    "postcode": "PO18 9AX",
    "easting": 482037,
    "northing": 107717,
    "latitude": 50.863151,
    "longitude": -0.835685,
    "local_authority": "Chichester"
  },
  {
    "fsa_id": 241200,
    "name": "Itchenor Sailing Club",
    "address": "Pier Point Road, Itchenor, Chichester, West Sussex",
    "postcode": "PO20 7AG",
    "easting": 480065,
    "northing": 101312,
    "latitude": 50.805842,
    "longitude": -0.865111,
    "local_authority": "Chichester"
  },
  {
    "fsa_id": 241203,
    "name": "J D Wetherspoon",
    "address": "The Dolphin And Anchor, 9 West Street, Chichester, West Sussex",
    "postcode": "PO19 1QD",
    "easting": 486048,
    "northing": 104844,
    "latitude": 50.83674,
    "longitude": -0.779394,
    "local_authority": "Chichester"
  },
  {
    "fsa_id": 241209,
    "name": "JB's Takeaway & Ships Bar",
    "address": "JB Complex, White Horse Caravan Park, Paddock Lane, Selsey",
    "postcode": "PO20 9EJ",
    "easting": 485319,
    "northing": 93883,
    "latitude": 50.738302,
    "longitude": -0.792271,
    "local_authority": "Chichester"
  },
  {
    "fsa_id": 241272,
    "name": "Liphook Golf Club",
    "address": "Wheatsheaf Enclosure, Milland, Liphook, West Sussex",
    "postcode": "GU30 7EH",
    "easting": 483546,
    "northing": 129677,
    "latitude": 51.060355,
    "longitude": -0.809213,
    "local_authority": "Chichester"
  },
  {
    "fsa_id": 241335,
    "name": "Medmerry Arms, (Medmerry Park Limited)",
    "address": "Medmerry Park, Stoney Lane, Earnley, Chichester",
    "postcode": "PO20 7JP",
    "easting": 481988,
    "northing": 95848,
    "latitude": 50.756448,
    "longitude": -0.839029,
    "local_authority": "Chichester"
  },
  {
    "fsa_id": 241347,
    "name": "Midhurst Sports Association",
    "address": "Midhurst Sports Association Grounds, Cowdray Ruins, North Street, Midhurst",
    "postcode": "GU29 9AL",
    "easting": 489102,
    "northing": 121618,
    "latitude": 50.987079,
    "longitude": -0.731944,
    "local_authority": "Chichester"
  },
  {
    "fsa_id": 241378,
    "name": "Nava Thai",
    "address": "The Hamilton Arms, School Lane, Stedham, Midhurst",
    "postcode": "GU29 0NZ",
    "easting": 485851,
    "northing": 122250,
    "latitude": 50.993245,
    "longitude": -0.778086,
    "local_authority": "Chichester"
  },
  {
    "fsa_id": 241384,
    "name": "New Park Sports And Social Club",
    "address": "New Park Community Association, New Park Centre, New Park Road, Chichester",
    "postcode": "PO19 7XY",
    "easting": 486467,
    "northing": 104986,
    "latitude": 50.837963,
    "longitude": -0.773397,
    "local_authority": "Chichester"
  },
  {
    "fsa_id": 241393,
    "name": "Noahs Ark Inn",
    "address": "Dial Green Lane, Lurgashall, Petworth, West Sussex",
    "postcode": "GU28 9ET",
    "easting": 493722,
    "northing": 127085,
    "latitude": 51.035503,
    "longitude": -0.664716,
    "local_authority": "Chichester"
  },
  {
    "fsa_id": 241401,
    "name": "Northchapel Working Mens Club",
    "address": "Pipers Lane, Northchapel, Petworth, West Sussex",
    "postcode": "GU28 9JA",
    "easting": 495401,
    "northing": 129484,
    "latitude": 51.056784,
    "longitude": -0.640147,
    "local_authority": "Chichester"
  },
  {
    "fsa_id": 241421,
    "name": "Old House At Home",
    "address": "Cot Lane, Chidham, Chichester, West Sussex",
    "postcode": "PO18 8SU",
    "easting": 478671,
    "northing": 104019,
    "latitude": 50.83037,
    "longitude": -0.884296,
    "local_authority": "Chichester"
  },
  {
    "fsa_id": 241428,
    "name": "Onslow Arms",
    "address": "High Street, Loxwood, Billingshurst, West Sussex",
    "postcode": "RH14 0RD",
    "easting": 503961,
    "northing": 131291,
    "latitude": 51.071543,
    "longitude": -0.517532,
    "local_authority": "Chichester"
  },
  {
    "fsa_id": 241431,
    "name": "Oscars Out Of School Club",
    "address": "Fernhurst Primary School, Haslemere Road, Fernhurst, Haslemere",
    "postcode": "GU27 3EA",
    "easting": 489695,
    "northing": 128674,
    "latitude": 51.050423,
    "longitude": -0.721741,
    "local_authority": "Chichester"
  },
  {
    "fsa_id": 241460,
    "name": "Petworth Club",
    "address": "Lombard Street, Petworth, West Sussex",
    "postcode": "GU28 0AG",
    "easting": 497684,
    "northing": 121761,
    "latitude": 50.986974,
    "longitude": -0.60966,
    "local_authority": "Chichester"
  },
  {
    "fsa_id": 241477,
    "name": "Pond Barn",
    "address": "Pond Road, Bracklesham Bay, Chichester, West Sussex",
    "postcode": "PO20 8HR",
    "easting": 480667,
    "northing": 96516,
    "latitude": 50.762638,
    "longitude": -0.857606,
    "local_authority": "Chichester"
  },
  {
    "fsa_id": 241495,
    "name": "Rainbow Inn",
    "address": "56 St Pauls Road, Chichester, West Sussex",
    "postcode": "PO19 3BW",
    "easting": 485877,
    "northing": 105439,
    "latitude": 50.842123,
    "longitude": -0.781668,
    "local_authority": "Chichester"
  },
  {
    "fsa_id": 241502,
    "name": "Richmond Arms",
    "address": "Mill Road, West Ashling, Chichester, West Sussex",
    "postcode": "PO18 8EA",
    "easting": 480555,
    "northing": 107320,
    "latitude": 50.85979,
    "longitude": -0.856826,
    "local_authority": "Chichester"
  },
  {
    "fsa_id": 241504,
    "name": "Rising Sun",
    "address": "Milland Road, Milland, Liphook, West Sussex",
    "postcode": "GU30 7NA",
    "easting": 484213,
    "northing": 126377,
    "latitude": 51.030599,
    "longitude": -0.800464,
    "local_authority": "Chichester"
  },
  {
    "fsa_id": 241518,
    "name": "Royal British Legion Club",
    "address": "31 High Street, Selsey, Chichester, West Sussex",
    "postcode": "PO20 0RB",
    "easting": 485514,
    "northing": 93512,
    "latitude": 50.734938,
    "longitude": -0.789594,
    "local_authority": "Chichester"
  },
  {
    "fsa_id": 241519,
    "name": "Royal Oak",
    "address": "Hooksway Lane, Hooksway, Chichester, West Sussex",
    "postcode": "PO18 9JZ",
    "easting": 481616,
    "northing": 116313,
    "latitude": 50.940493,
    "longitude": -0.839747,
    "local_authority": "Chichester"
  },
  {
    "fsa_id": 241520,
    "name": "Royal Oak",
    "address": "Oaklands Lane, West Lavington, Midhurst, West Sussex",
    "postcode": "GU29 0EP",
    "easting": 488569,
    "northing": 120162,
    "latitude": 50.974072,
    "longitude": -0.739876,
    "local_authority": "Chichester"
  },
  {
    "fsa_id": 241551,
    "name": "Selsey Football And Social Club",
    "address": "High Street, Selsey, Chichester, West Sussex",
    "postcode": "PO20 0QG",
    "easting": 485360,
    "northing": 93326,
    "latitude": 50.733288,
    "longitude": -0.791819,
    "local_authority": "Chichester"
  },
  {
    "fsa_id": 241561,
    "name": "Sharon Danks",
    "address": "Royal British Legion Club, Legion Way, East Wittering, Chichester",
    "postcode": "PO20 8PA",
    "easting": 480379,
    "northing": 96707,
    "latitude": 50.764387,
    "longitude": -0.861647,
    "local_authority": "Chichester"
  },
  {
    "fsa_id": 241566,
    "name": "Sidlesham Football Club",
    "address": "Selsey Road, Sidlesham, Chichester, West Sussex",
    "postcode": "PO20 7RD",
    "easting": 485646,
    "northing": 97918,
    "latitude": 50.774531,
    "longitude": -0.786701,
    "local_authority": "Chichester"
  },
  {
    "fsa_id": 241567,
    "name": "Silver Horseshoe Club",
    "address": "Holdens Caravan Park, Bracklesham Lane, Bracklesham Bay, Chichester",
    "postcode": "PO20 8JG",
    "easting": 481030,
    "northing": 97132,
    "latitude": 50.768117,
    "longitude": -0.852339,
    "local_authority": "Chichester"
  },
  {
    "fsa_id": 241572,
    "name": "Site Shop",
    "address": "Selsey Country Club, Golf Links Lane, Selsey, Chichester",
    "postcode": "PO20 9DR",
    "easting": 485027,
    "northing": 94694,
    "latitude": 50.745636,
    "longitude": -0.796221,
    "local_authority": "Chichester"
  },
  {
    "fsa_id": 241589,
    "name": "Solent View Bar",
    "address": "The Waterfront Complex, West Sands Caravan Park, Mill Lane, Selsey",
    "postcode": "PO20 9BH",
    "easting": 484339,
    "northing": 93462,
    "latitude": 50.73466,
    "longitude": -0.806252,
    "local_authority": "Chichester"
  },
  {
    "fsa_id": 241595,
    "name": "Southbourne Club",
    "address": "56 New Road, Southbourne, Emsworth, Hampshire",
    "postcode": "PO10 8JX",
    "easting": 477135,
    "northing": 105716,
    "latitude": 50.845834,
    "longitude": -0.905746,
    "local_authority": "Chichester"
  },
  {
    "fsa_id": 241611,
    "name": "Sports Bar",
    "address": "2 - 3 New Parade, Shore Road, East Wittering, Chichester",
    "postcode": "PO20 8EA",
    "easting": 479465,
    "northing": 97231,
    "latitude": 50.769233,
    "longitude": -0.874491,
    "local_authority": "Chichester"
  },
  {
    "fsa_id": 241628,
    "name": "Stag Inn",
    "address": "Balls Cross Road, Balls Cross, Petworth, West Sussex",
    "postcode": "GU28 9JP",
    "easting": 498749,
    "northing": 126295,
    "latitude": 51.027551,
    "longitude": -0.593259,
    "local_authority": "Chichester"
  },
  {
    "fsa_id": 241629,
    "name": "Stags Head",
    "address": "The Square, Westbourne, Emsworth, Hampshire",
    "postcode": "PO10 8UE",
    "easting": 475681,
    "northing": 107431,
    "latitude": 50.861436,
    "longitude": -0.92604,
    "local_authority": "Chichester"
  },
  {
    "fsa_id": 241648,
    "name": "Sun Inn",
    "address": "Loxwood Road, Plaistow, Billingshurst, West Sussex",
    "postcode": "RH14 0PX",
    "easting": 500516,
    "northing": 130948,
    "latitude": 51.069073,
    "longitude": -0.566781,
    "local_authority": "Chichester"
  },
  {
    "fsa_id": 241696,
    "name": "Thatched Tavern",
    "address": "Church Road, East Wittering, Chichester, West Sussex",
    "postcode": "PO20 8PU",
    "easting": 479919,
    "northing": 97989,
    "latitude": 50.775976,
    "longitude": -0.86789,
    "local_authority": "Chichester"
  },
  {
    "fsa_id": 241697,
    "name": "The Anchor Bleu",
    "address": "Anchor Bleu, High Street, Bosham, Chichester",
    "postcode": "PO18 8LS",
    "easting": 480537,
    "northing": 103865,
    "latitude": 50.82873,
    "longitude": -0.857854,
    "local_authority": "Chichester"
  },
  {
    "fsa_id": 241698,
    "name": "The Anchor Inn",
    "address": "Selsey Road, Sidlesham, Chichester, West Sussex",
    "postcode": "PO20 7QU",
    "easting": 485366,
    "northing": 99065,
    "latitude": 50.784875,
    "longitude": -0.790405,
    "local_authority": "Chichester"
  },
  {
    "fsa_id": 241705,
    "name": "The Barleycorn",
    "address": "Main Road, Nutbourne, Chichester, West Sussex",
    "postcode": "PO18 8RS",
    "easting": 478671,
    "northing": 105425,
    "latitude": 50.84302,
    "longitude": -0.883995,
    "local_authority": "Chichester"
  },
  {
    "fsa_id": 241713,
    "name": "The Black Fox Inn",
    "address": "Portsmouth Road, Milland, Liphook, West Sussex",
    "postcode": "GU30 7JJ",
    "easting": 482896,
    "northing": 129061,
    "latitude": 51.05492,
    "longitude": -0.818627,
    "local_authority": "Chichester"
  },
  {
    "fsa_id": 241714,
    "name": "The Blacksmiths",
    "address": "Selsey Road, Donnington, Chichester, West Sussex",
    "postcode": "PO20 7PR",
    "easting": 485322,
    "northing": 101755,
    "latitude": 50.809066,
    "longitude": -0.790405,
    "local_authority": "Chichester"
  },
  {
    "fsa_id": 241723,
    "name": "The Bulls Head",
    "address": "99 Fishbourne Road West, Fishbourne, Chichester, West Sussex",
    "postcode": "PO19 3JP",
    "easting": 483724,
    "northing": 104639,
    "latitude": 50.835237,
    "longitude": -0.812422,
    "local_authority": "Chichester"
  },
  {
    "fsa_id": 241727,
    "name": "The Chantry",
    "address": "27 - 28 Southgate, Chichester, West Sussex",
    "postcode": "PO19 1ES",
    "easting": 485990,
    "northing": 104481,
    "latitude": 50.833485,
    "longitude": -0.780288,
    "local_authority": "Chichester"
  },
  {
    "fsa_id": 241730,
    "name": "The Chichester Inn",
    "address": "38 West Street, Chichester, West Sussex",
    "postcode": "PO19 1RP",
    "easting": 485794,
    "northing": 104841,
    "latitude": 50.83675,
    "longitude": -0.783001,
    "local_authority": "Chichester"
  },
  {
    "fsa_id": 241751,
    "name": "The Crab And Lobster",
    "address": "Mill Lane, Sidlesham, Chichester, West Sussex",
    "postcode": "PO20 7NB",
    "easting": 486230,
    "northing": 97355,
    "latitude": 50.769392,
    "longitude": -0.778552,
    "local_authority": "Chichester"
  },
  {
    "fsa_id": 241752,
    "name": "The Crab Pot",
    "address": "145 High Street, Selsey, Chichester, West Sussex",
    "postcode": "PO20 0QB",
    "easting": 485326,
    "northing": 93177,
    "latitude": 50.731953,
    "longitude": -0.792335,
    "local_authority": "Chichester"
  },
  {
    "fsa_id": 241756,
    "name": "The Cricketers",
    "address": "High Street, Duncton, Petworth, West Sussex",
    "postcode": "GU28 0LB",
    "easting": 495972,
    "northing": 117087,
    "latitude": 50.945253,
    "longitude": -0.635275,
    "local_authority": "Chichester"
  },
  {
    "fsa_id": 241757,
    "name": "The Cricketers Inn",
    "address": "Commonside, Westbourne, Emsworth, Hampshire",
    "postcode": "PO10 8TA",
    "easting": 475734,
    "northing": 108151,
    "latitude": 50.867912,
    "longitude": -0.925138,
    "local_authority": "Chichester"
  },
  {
    "fsa_id": 241758,
    "name": "The Crown Inn",
    "address": "107 High Street, Selsey, Chichester, West Sussex",
    "postcode": "PO20 0QL",
    "easting": 485404,
    "northing": 93310,
    "latitude": 50.733138,
    "longitude": -0.791199,
    "local_authority": "Chichester"
  },
  {
    "fsa_id": 241760,
    "name": "The Dean Inn",
    "address": "West Dean, Chichester, West Sussex",
    "postcode": "PO18 0QX",
    "easting": 485753,
    "northing": 112475,
    "latitude": 50.905389,
    "longitude": -0.781781,
    "local_authority": "Chichester"
  },
  {
    "fsa_id": 241761,
    "name": "The Duke Of Cumberland Arms",
    "address": "Henley, Haslemere, West Sussex",
    "postcode": "GU27 3HQ",
    "easting": 489488,
    "northing": 125727,
    "latitude": 51.023959,
    "longitude": -0.725434,
    "local_authority": "Chichester"
  },
  {
    "fsa_id": 241762,
    "name": "The Earl Of March",
    "address": "Lavant, West Sussex",
    "postcode": "PO18 0BQ",
    "easting": 485740,
    "northing": 108283,
    "latitude": 50.867703,
    "longitude": -0.782962,
    "local_authority": "Chichester"
  },
  {
    "fsa_id": 241763,
    "name": "The Eastgate PH",
    "address": "4 The Hornet, Chichester, West Sussex",
    "postcode": "PO19 7JG",
    "easting": 486561,
    "northing": 104787,
    "latitude": 50.836151,
    "longitude": -0.772124,
    "local_authority": "Chichester"
  },
  {
    "fsa_id": 241765,
    "name": "The Elsted Inn",
    "address": "Fitzhall Road, Elsted, Midhurst, West Sussex",
    "postcode": "GU29 0JT",
    "easting": 483266,
    "northing": 120606,
    "latitude": 50.978853,
    "longitude": -0.815287,
    "local_authority": "Chichester"
  },
  {
    "fsa_id": 241770,
    "name": "The Fishermans Joy",
    "address": "71 East Street, Selsey, Chichester, West Sussex",
    "postcode": "PO20 0BU",
    "easting": 485911,
    "northing": 93032,
    "latitude": 50.730564,
    "longitude": -0.784082,
    "local_authority": "Chichester"
  },
  {
    "fsa_id": 241772,
    "name": "The Foundry",
    "address": "1 Southgate, Chichester, West Sussex",
    "postcode": "PO19 8DH",
    "easting": 485913,
    "northing": 104363,
    "latitude": 50.832444,
    "longitude": -0.781423,
    "local_authority": "Chichester"
  },
  {
    "fsa_id": 241774,
    "name": "The Four Chesnuts",
    "address": "234 Oving Road, Chichester, West Sussex",
    "postcode": "PO19 7EJ",
    "easting": 487146,
    "northing": 104859,
    "latitude": 50.83671,
    "longitude": -0.763787,
    "local_authority": "Chichester"
  },
  {
    "fsa_id": 241775,
    "name": "The Fox Goes Free",
    "address": "East Dean Lane, Charlton, Singleton, Chichester",
    "postcode": "PO18 0HU",
    "easting": 488778,
    "northing": 112956,
    "latitude": 50.909257,
    "longitude": -0.738654,
    "local_authority": "Chichester"
  },
  {
    "fsa_id": 241776,
    "name": "The Friendship Centre (Petworth And District Over 60's Club)",
    "address": "Trumps Alley, East Street, Petworth, West Sussex",
    "postcode": "GU28 0AB",
    "easting": 497742,
    "northing": 121751,
    "latitude": 50.986874,
    "longitude": -0.608836,
    "local_authority": "Chichester"
  },
  {
    "fsa_id": 241779,
    "name": "The George And Dragon",
    "address": "51 North Street, Chichester, West Sussex",
    "postcode": "PO19 1NQ",
    "easting": 486121,
    "northing": 105172,
    "latitude": 50.839677,
    "longitude": -0.778266,
    "local_authority": "Chichester"
  },
  {
    "fsa_id": 241780,
    "name": "The George Inn",
    "address": "Eartham, Chichester, West Sussex",
    "postcode": "PO18 0LT",
    "easting": 493922,
    "northing": 109553,
    "latitude": 50.877851,
    "longitude": -0.666383,
    "local_authority": "Chichester"
  },
  {
    "fsa_id": 241783,
    "name": "The Goodwood Hotel",
    "address": "Goodwood, Chichester, West Sussex",
    "postcode": "PO18 0QB",
    "easting": 489246,
    "northing": 108185,
    "latitude": 50.866301,
    "longitude": -0.733162,
    "local_authority": "Chichester"
  },
  {
    "fsa_id": 241789,
    "name": "The Greyhound Inn",
    "address": "Cocking Causeway, Cocking, Midhurst, West Sussex",
    "postcode": "GU29 9QH",
    "easting": 488227,
    "northing": 119652,
    "latitude": 50.969539,
    "longitude": -0.744883,
    "local_authority": "Chichester"
  },
  {
    "fsa_id": 241790,
    "name": "The Gribble Inn",
    "address": "Gribble Lane, Oving, Chichester, West Sussex",
    "postcode": "PO20 2BP",
    "easting": 489947,
    "northing": 105067,
    "latitude": 50.838152,
    "longitude": -0.723969,
    "local_authority": "Chichester"
  },
  {
    "fsa_id": 241791,
    "name": "The Half Moon",
    "address": "Half Moon Inn, Glasshouse Lane, Kirdford, Billingshurst",
    "postcode": "RH14 0LT",
    "easting": 501759,
    "northing": 126558,
    "latitude": 51.029392,
    "longitude": -0.550279,
    "local_authority": "Chichester"
  },
  {
    "fsa_id": 241793,
    "name": "The Hole In The Wall",
    "address": "St Martins Street, Chichester, West Sussex",
    "postcode": "PO19 1NP",
    "easting": 486145,
    "northing": 104854,
    "latitude": 50.836815,
    "longitude": -0.778,
    "local_authority": "Chichester"
  },
  {
    "fsa_id": 241794,
    "name": "The Hollist Arms",
    "address": "The Street, Lodsworth, Petworth, West Sussex",
    "postcode": "GU28 9BZ",
    "easting": 492751,
    "northing": 123162,
    "latitude": 51.000384,
    "longitude": -0.679563,
    "local_authority": "Chichester"
  },
  {
    "fsa_id": 241795,
    "name": "The Hornet Alehouse",
    "address": "23 The Hornet, Chichester, West Sussex",
    "postcode": "PO19 7JL",
    "easting": 486548,
    "northing": 104809,
    "latitude": 50.83635,
    "longitude": -0.772288,
    "local_authority": "Chichester"
  },
  {
    "fsa_id": 241801,
    "name": "The Jolly Drover",
    "address": "London Road, Hill Brow, Liss, Hampshire",
    "postcode": "GU33 7QL",
    "easting": 478848,
    "northing": 126283,
    "latitude": 51.030514,
    "longitude": -0.876975,
    "local_authority": "Chichester"
  },
  {
    "fsa_id": 241803,
    "name": "The Kings Arms",
    "address": "Midhurst Road, Fernhurst, Haslemere, West Sussex",
    "postcode": "GU27 3HA",
    "easting": 489489,
    "northing": 126860,
    "latitude": 51.034145,
    "longitude": -0.725126,
    "local_authority": "Chichester"
  },
  {
    "fsa_id": 241804,
    "name": "The Lamb Inn",
    "address": "Chichester Road, West Wittering, Chichester, West Sussex",
    "postcode": "PO20 8QA",
    "easting": 480576,
    "northing": 99166,
    "latitude": 50.786468,
    "longitude": -0.858331,
    "local_authority": "Chichester"
  },
  {
    "fsa_id": 241806,
    "name": "The Last Drop",
    "address": "Grove Lane, Petworth, West Sussex",
    "postcode": "GU28 0HY",
    "easting": 498013,
    "northing": 120715,
    "latitude": 50.977506,
    "longitude": -0.605256,
    "local_authority": "Chichester"
  },
  {
    "fsa_id": 241809,
    "name": "The Lickfold Inn",
    "address": "Surrey Road, Lickfold, Lurgashall, Petworth",
    "postcode": "GU28 9EY",
    "easting": 492592,
    "northing": 126344,
    "latitude": 51.029015,
    "longitude": -0.681017,
    "local_authority": "Chichester"
  },
  {
    "fsa_id": 241817,
    "name": "The Midhurst Club",
    "address": "North Street, Midhurst, West Sussex",
    "postcode": "GU29 9DR",
    "easting": 488635,
    "northing": 121756,
    "latitude": 50.988392,
    "longitude": -0.738548,
    "local_authority": "Chichester"
  },
  {
    "fsa_id": 241818,
    "name": "The Mill",
    "address": "Shottermill Road, Hammer, Linchmere, Haslemere",
    "postcode": "GU27 3QE",
    "easting": 488298,
    "northing": 132486,
    "latitude": 51.084906,
    "longitude": -0.740736,
    "local_authority": "Chichester"
  },
  {
    "fsa_id": 241819,
    "name": "The Nags Head",
    "address": "3 St Pancras, Chichester, West Sussex",
    "postcode": "PO19 7SJ",
    "easting": 486507,
    "northing": 104861,
    "latitude": 50.836833,
    "longitude": -0.772859,
    "local_authority": "Chichester"
  },
  {
    "fsa_id": 241821,
    "name": "The Neptune Inn",
    "address": "120 High Street, Selsey, Chichester, West Sussex",
    "postcode": "PO20 0QE",
    "easting": 485296,
    "northing": 93197,
    "latitude": 50.732137,
    "longitude": -0.792755,
    "local_authority": "Chichester"
  },
  {
    "fsa_id": 241825,
    "name": "The Ocean Bar",
    "address": "The Waterfront Complex, West Sands Caravan Park, Mill Lane, Selsey",
    "postcode": "PO20 9BH",
    "easting": 484339,
    "northing": 93462,
    "latitude": 50.73466,
    "longitude": -0.806252,
    "local_authority": "Chichester"
  },
  {
    "fsa_id": 241827,
    "name": "The Old Cross",
    "address": "65 North Street, Chichester, West Sussex",
    "postcode": "PO19 1LP",
    "easting": 486112,
    "northing": 104993,
    "latitude": 50.83807,
    "longitude": -0.77845,
    "local_authority": "Chichester"
  },
  {
    "fsa_id": 241828,
    "name": "The Old House At Home",
    "address": "Cakeham Road, West Wittering, Chichester, West Sussex",
    "postcode": "PO20 8AD",
    "easting": 477943,
    "northing": 98360,
    "latitude": 50.779589,
    "longitude": -0.895831,
    "local_authority": "Chichester"
  },
  {
    "fsa_id": 241836,
    "name": "The Park Tavern",
    "address": "11 Priory Road, Chichester, West Sussex",
    "postcode": "PO19 1NS",
    "easting": 486211,
    "northing": 105037,
    "latitude": 50.83845,
    "longitude": -0.77702,
    "local_authority": "Chichester"
  },
  {
    "fsa_id": 241846,
    "name": "The Red Lion",
    "address": "The Green, Fernhurst, Haslemere, West Sussex",
    "postcode": "GU27 3HY",
    "easting": 490014,
    "northing": 128553,
    "latitude": 51.049283,
    "longitude": -0.717221,
    "local_authority": "Chichester"
  },
  {
    "fsa_id": 241847,
    "name": "The Richmond",
    "address": "9 Stockbridge Road, Chichester, West Sussex",
    "postcode": "PO19 8DT",
    "easting": 485842,
    "northing": 104153,
    "latitude": 50.830558,
    "longitude": -0.782466,
    "local_authority": "Chichester"
  },
  {
    "fsa_id": 241850,
    "name": "The Royal British Legion",
    "address": "Grove Street, Petworth, West Sussex",
    "postcode": "GU28 0BD",
    "easting": 497930,
    "northing": 121421,
    "latitude": 50.983867,
    "longitude": -0.606248,
    "local_authority": "Chichester"
  },
  {
    "fsa_id": 241851,
    "name": "The Royal Oak",
    "address": "Pook Lane, Lavant, Chichester, West Sussex",
    "postcode": "PO18 0AX",
    "easting": 486330,
    "northing": 108481,
    "latitude": 50.869387,
    "longitude": -0.77452,
    "local_authority": "Chichester"
  },
  {
    "fsa_id": 241855,
    "name": "The Ship Inn",
    "address": "The Street, Itchenor, Chichester, West Sussex",
    "postcode": "PO20 7AH",
    "easting": 479978,
    "northing": 101323,
    "latitude": 50.805953,
    "longitude": -0.866343,
    "local_authority": "Chichester"
  },
  {
    "fsa_id": 241857,
    "name": "The Shore Inn",
    "address": "Shore Road, East Wittering, Chichester, West Sussex",
    "postcode": "PO20 8DZ",
    "easting": 479451,
    "northing": 97126,
    "latitude": 50.76829,
    "longitude": -0.874712,
    "local_authority": "Chichester"
  },
  {
    "fsa_id": 241858,
    "name": "The Sir Roger Tichborne",
    "address": "Loxwood Road, Alfold Bars, Loxwood, Billingshurst",
    "postcode": "RH14 0QS",
    "easting": 503708,
    "northing": 133371,
    "latitude": 51.090277,
    "longitude": -0.52056,
    "local_authority": "Chichester"
  },
  {
    "fsa_id": 241860,
    "name": "The Spotted Cow",
    "address": "Selsey Road, Hunston, Chichester, West Sussex",
    "postcode": "PO20 1PD",
    "easting": 486256,
    "northing": 101986,
    "latitude": 50.811014,
    "longitude": -0.777112,
    "local_authority": "Chichester"
  },
  {
    "fsa_id": 241861,
    "name": "The Squire And Horse Inn",
    "address": "Bury Common, Bury, Pulborough, West Sussex",
    "postcode": "RH20 1NS",
    "easting": 500801,
    "northing": 112988,
    "latitude": 50.907572,
    "longitude": -0.567692,
    "local_authority": "Chichester"
  },
  {
    "fsa_id": 241862,
    "name": "The Star",
    "address": "Market Square, Petworth, West Sussex",
    "postcode": "GU28 0AH",
    "easting": 497651,
    "northing": 121679,
    "latitude": 50.986243,
    "longitude": -0.610152,
    "local_authority": "Chichester"
  },
  {
    "fsa_id": 241864,
    "name": "The Stonemasons Inn",
    "address": "North Street, Petworth, West Sussex",
    "postcode": "GU28 9NL",
    "easting": 497679,
    "northing": 122466,
    "latitude": 50.993313,
    "longitude": -0.609542,
    "local_authority": "Chichester"
  },
  {
    "fsa_id": 241866,
    "name": "The Sussex Brewery",
    "address": "36 Main Road, Southbourne, Emsworth, Hampshire",
    "postcode": "PO10 8AU",
    "easting": 475461,
    "northing": 105740,
    "latitude": 50.846271,
    "longitude": -0.929513,
    "local_authority": "Chichester"
  },
  {
    "fsa_id": 241869,
    "name": "The Swan Inn",
    "address": "Lower Street, Fittleworth, Pulborough, West Sussex",
    "postcode": "RH20 1EL",
    "easting": 501053,
    "northing": 118620,
    "latitude": 50.958158,
    "longitude": -0.562563,
    "local_authority": "Chichester"
  },
  {
    "fsa_id": 241870,
    "name": "The Swan Inn",
    "address": "Red Lion Street, Midhurst, West Sussex",
    "postcode": "GU29 9PB",
    "easting": 488671,
    "northing": 121460,
    "latitude": 50.985716,
    "longitude": -0.738107,
    "local_authority": "Chichester"
  },
  {
    "fsa_id": 241872,
    "name": "The Sylvia Beaufoy Youth Centre",
    "address": "Midhurst Road, Petworth, West Sussex",
    "postcode": "GU28 0ET",
    "easting": 497562,
    "northing": 121439,
    "latitude": 50.9841,
    "longitude": -0.611484,
    "local_authority": "Chichester"
  },
  {
    "fsa_id": 241873,
    "name": "The Three Crowns",
    "address": "Billingshurst Road, Wisborough Green, Billingshurst, West Sussex",
    "postcode": "RH14 0DX",
    "easting": 505052,
    "northing": 125922,
    "latitude": 51.023082,
    "longitude": -0.503521,
    "local_authority": "Chichester"
  },
  {
    "fsa_id": 241874,
    "name": "The Three Moles",
    "address": "Selham Road, Selham, Lodsworth, Petworth",
    "postcode": "GU28 0PN",
    "easting": 493496,
    "northing": 120677,
    "latitude": 50.977915,
    "longitude": -0.669588,
    "local_authority": "Chichester"
  },
  {
    "fsa_id": 241878,
    "name": "The Unicorn Inn",
    "address": "Heyshott Street, Heyshott, Midhurst, West Sussex",
    "postcode": "GU29 0DL",
    "easting": 489869,
    "northing": 118003,
    "latitude": 50.95447,
    "longitude": -0.721911,
    "local_authority": "Chichester"
  },
  {
    "fsa_id": 241888,
    "name": "The Welldiggers Arms",
    "address": "Low Heath, Petworth, West Sussex",
    "postcode": "GU28 0HG",
    "easting": 499390,
    "northing": 120977,
    "latitude": 50.979626,
    "longitude": -0.585577,
    "local_authority": "Chichester"
  },
  {
    "fsa_id": 241892,
    "name": "The Woolpack",
    "address": "71 Fishbourne Road West, Fishbourne, Chichester, West Sussex",
    "postcode": "PO19 3JJ",
    "easting": 483892,
    "northing": 104664,
    "latitude": 50.835437,
    "longitude": -0.810031,
    "local_authority": "Chichester"
  },
  {
    "fsa_id": 241895,
    "name": "Three Horseshoes",
    "address": "Station Road, Elsted, Midhurst, West Sussex",
    "postcode": "GU29 0JY",
    "easting": 481626,
    "northing": 119651,
    "latitude": 50.970502,
    "longitude": -0.838857,
    "local_authority": "Chichester"
  },
  {
    "fsa_id": 241899,
    "name": "Tillington Village Hall Management Committee",
    "address": "Tillington Village Hall, Tillington, Petworth, West Sussex",
    "postcode": "GU28 9AF",
    "easting": 496270,
    "northing": 122056,
    "latitude": 50.989855,
    "longitude": -0.629721,
    "local_authority": "Chichester"
  },
  {
    "fsa_id": 241928,
    "name": "Victoria Inn",
    "address": "West Marden, West Sussex",
    "postcode": "PO18 9EN",
    "easting": 477234,
    "northing": 113592,
    "latitude": 50.916641,
    "longitude": -0.902678,
    "local_authority": "Chichester"
  },
  {
    "fsa_id": 241930,
    "name": "Viking Bar",
    "address": "The Viking, Green Lawns Caravan Park, Chichester Road, Selsey",
    "postcode": "PO20 0ND",
    "easting": 485319,
    "northing": 93883,
    "latitude": 50.738302,
    "longitude": -0.792271,
    "local_authority": "Chichester"
  },
  {
    "fsa_id": 241931,
    "name": "Viking Food",
    "address": "Viking Music And Dance Club, Green Lawns Caravan Park, Chichester Road, Selsey",
    "postcode": "PO20 0ND",
    "easting": 485319,
    "northing": 93883,
    "latitude": 50.738302,
    "longitude": -0.792271,
    "local_authority": "Chichester"
  },
  {
    "fsa_id": 241944,
    "name": "Walnut Tree Inn",
    "address": "Vinnetrow Road, Runcton, Chichester, West Sussex",
    "postcode": "PO20 1QB",
    "easting": 488083,
    "northing": 102635,
    "latitude": 50.816574,
    "longitude": -0.751017,
    "local_authority": "Chichester"
  },
  {
    "fsa_id": 241956,
    "name": "West Wittering And District",
    "address": "Royal British Legion Club, Legion Way, East Wittering, Chichester",
    "postcode": "PO20 8PA",
    "easting": 480379,
    "northing": 96707,
    "latitude": 50.764387,
    "longitude": -0.861647,
    "local_authority": "Chichester"
  },
  {
    "fsa_id": 241959,
    "name": "Westbourne Social Club",
    "address": "River Street, Westbourne, Emsworth, West Sussex",
    "postcode": "PO10 8TG",
    "easting": 475801,
    "northing": 107845,
    "latitude": 50.865152,
    "longitude": -0.92425,
    "local_authority": "Chichester"
  },
  {
    "fsa_id": 241965,
    "name": "Wheatsheaf Inn",
    "address": "Wool Lane, Midhurst, West Sussex",
    "postcode": "GU29 9BX",
    "easting": 488602,
    "northing": 121474,
    "latitude": 50.985862,
    "longitude": -0.739086,
    "local_authority": "Chichester"
  },
  {
    "fsa_id": 241968,
    "name": "White Horse",
    "address": "The Square, Westbourne, Emsworth, West Sussex",
    "postcode": "PO10 8UE",
    "easting": 475681,
    "northing": 107431,
    "latitude": 50.861436,
    "longitude": -0.92604,
    "local_authority": "Chichester"
  },
  {
    "fsa_id": 241969,
    "name": "White Horse Club & Sports Bar",
    "address": "JB Complex, White Horse Caravan Park, Paddock Lane, Selsey",
    "postcode": "PO20 9EJ",
    "easting": 485319,
    "northing": 93883,
    "latitude": 50.738302,
    "longitude": -0.792271,
    "local_authority": "Chichester"
  },
  {
    "fsa_id": 241971,
    "name": "White Horse Inn",
    "address": "East Street, Rogate, Petersfield, West Sussex",
    "postcode": "GU31 5EA",
    "easting": 480826,
    "northing": 123777,
    "latitude": 51.007709,
    "longitude": -0.849332,
    "local_authority": "Chichester"
  },
  {
    "fsa_id": 241973,
    "name": "White Swan",
    "address": "Station Road, Bosham, Chichester, West Sussex",
    "postcode": "PO18 8NG",
    "easting": 481225,
    "northing": 105350,
    "latitude": 50.841985,
    "longitude": -0.847745,
    "local_authority": "Chichester"
  },
  {
    "fsa_id": 241979,
    "name": "Wickham Arms",
    "address": "102 Bognor Road, Chichester, West Sussex",
    "postcode": "PO19 7TW",
    "easting": 487325,
    "northing": 104471,
    "latitude": 50.833204,
    "longitude": -0.761352,
    "local_authority": "Chichester"
  },
  {
    "fsa_id": 242001,
    "name": "Yeee Ha!",
    "address": "2 Knock Hundred House, Knockhundred Row, Midhurst, West Sussex",
    "postcode": "GU29 9DQ",
    "easting": 488668,
    "northing": 121593,
    "latitude": 50.986921,
    "longitude": -0.738132,
    "local_authority": "Chichester"
  },
  {
    "fsa_id": 242004,
    "name": "Zee Bar",
    "address": "Student Union Building, Bishop Otter Campus, College Lane, Chichester",
    "postcode": "PO19 6PE",
    "easting": 486382,
    "northing": 105688,
    "latitude": 50.844278,
    "longitude": -0.774439,
    "local_authority": "Chichester"
  },
  {
    "fsa_id": 246303,
    "name": "The Flying Bull",
    "address": "The Flying Bull Inn, London Road, Rake, Liss, GU33 7JB",
    "postcode": "GU33 7JB",
    "easting": 480382,
    "northing": 127807,
    "latitude": 51.044003,
    "longitude": -0.854781,
    "local_authority": "Chichester"
  }
]